{"maps":{"idOthers":{"label":"Others","state":1,"bkmrk":{}}},"portals":{"idOthers":{"label":"Others","state":1,"bkmrk":{"id1585166627822047":{"guid":"c57ddcc181534e69bffefb22c8edaa76.16","latlng":"-8.07181,111.889074","label":"Baitun Nuur Mosque"},"id1585166629501178":{"guid":"0af9b74f37774bfdb5e57a494647a852.16","latlng":"-8.070584,111.891103","label":"Mushola Saadatul Basyar"},"id1585166632414269":{"guid":"d00bbf6950a5462dbd7f48b4ab4e10f2.16","latlng":"-8.065685,111.890617","label":"Jami Al Assar Mosque"},"id1585166633991339":{"guid":"f7b2bbf80dd7441d816003109e27beca.16","latlng":"-8.067846,111.891036","label":"Masjid Kubah Biru"},"id1585166635025473":{"guid":"06a0a6f4c0e84d69b87c33990cebbd3e.16","latlng":"-8.067761,111.891547","label":"Masjid Al Abror"},"id1585166636283561":{"guid":"a02c8931002a40b8a38bd585d63e8911.16","latlng":"-8.065864,111.892605","label":"masjid baytunnuur"},"id158516663748664":{"guid":"7e1585923a18438b8ed1b61b491bc338.16","latlng":"-8.065569,111.894616","label":"masjid asy syakuur"},"id1585166639383721":{"guid":"f2280cfee56d495ea11224f6e6c360c8.16","latlng":"-8.067012,111.894418","label":"Masjid Karangasem"},"id1585166640845854":{"guid":"7769a41f79994c878eb3bffd8dcbe08e.16","latlng":"-8.068791,111.892746","label":"Masjid Tusuk Sate Gg 3"},"id158516664306598":{"guid":"d408f3cbf88444beb3973c3da8823040.16","latlng":"-8.06915,111.894272","label":"Relief Koi"},"id15851666447641083":{"guid":"2bde71345dd143c8ba61609d53ed1fd8.16","latlng":"-8.068975,111.896221","label":"Musholla Pom Karangwaru"},"id15851666463361166":{"guid":"0a3290471d2b4e5c8ec4970347460f4a.16","latlng":"-8.068729,111.899241","label":"masjid al iklas kel. karangwaru"},"id15851666476291265":{"guid":"12228ba97c9e4464927d130bbef6185a.16","latlng":"-8.068615,111.899925","label":"PKK Inscription Karangwaru"},"id15851666490441373":{"guid":"3b849802a5244095b4d6c79f8cd7fad5.16","latlng":"-8.070437,111.900112","label":"Masjid Al Huda"},"id15851666502561458":{"guid":"52221c703e304ecf8bbbfd00c99a069d.16","latlng":"-8.07046,111.898094","label":"PKK inscription"},"id15851666514041572":{"guid":"3e2d0b7bb6124e56882d87e7061c3f60.16","latlng":"-8.070423,111.896557","label":"Masjid Al Hidayah"},"id15851666536291690":{"guid":"7ff08b38e90f4a9ca2f9653a225e70c9.16","latlng":"-8.07207,111.896025","label":"Musholla Hidayatulah"},"id15851666550291746":{"guid":"4a4110a02d404bdf818ea2961b2556e4.16","latlng":"-8.071958,111.896401","label":"plakat kantor kelurahan karangwaru"},"id15851666564701892":{"guid":"2f121c21feec4672aeaf29ddcced87f0.16","latlng":"-8.07224,111.897574","label":"Musholla BKBP"}}}}}