{"maps":{"idOthers":{"label":"Others","state":1,"bkmrk":{}}},"portals":{"idOthers":{"label":"Others","state":1,"bkmrk":{"id15849041358135143":{"guid":"6664c0d7bc6b4289966ba0f70215f663.16","latlng":"-8.071704,111.901768","label":"Gereja Kristen Abdiel Anugerah"},"id15849041381875296":{"guid":"3b849802a5244095b4d6c79f8cd7fad5.16","latlng":"-8.070437,111.900112","label":"Masjid Al Huda"},"id1584904140891531":{"guid":"12228ba97c9e4464927d130bbef6185a.16","latlng":"-8.068615,111.899925","label":"PKK Inscription Karangwaru"},"id15849041429625421":{"guid":"0a3290471d2b4e5c8ec4970347460f4a.16","latlng":"-8.068729,111.899241","label":"masjid al iklas kel. karangwaru"},"id15849041453105513":{"guid":"52221c703e304ecf8bbbfd00c99a069d.16","latlng":"-8.07046,111.898094","label":"PKK inscription"},"id15849041480435611":{"guid":"3e2d0b7bb6124e56882d87e7061c3f60.16","latlng":"-8.070423,111.896557","label":"Masjid Al Hidayah"},"id15849041507795788":{"guid":"2bde71345dd143c8ba61609d53ed1fd8.16","latlng":"-8.068975,111.896221","label":"Musholla Pom Karangwaru"},"id15849041533625878":{"guid":"7ff08b38e90f4a9ca2f9653a225e70c9.16","latlng":"-8.07207,111.896025","label":"Musholla Hidayatulah"},"id15849041562915977":{"guid":"4a4110a02d404bdf818ea2961b2556e4.16","latlng":"-8.071958,111.896401","label":"plakat kantor kelurahan karangwaru"},"id1584904158650603":{"guid":"2f121c21feec4672aeaf29ddcced87f0.16","latlng":"-8.07224,111.897574","label":"Musholla BKBP"},"id15849047416046124":{"guid":"d408f3cbf88444beb3973c3da8823040.16","latlng":"-8.06915,111.894272","label":"Relief Koi"},"id15849047447186224":{"guid":"f2280cfee56d495ea11224f6e6c360c8.16","latlng":"-8.067012,111.894418","label":"Masjid Karangasem"},"id15849047490126379":{"guid":"7e1585923a18438b8ed1b61b491bc338.16","latlng":"-8.065569,111.894616","label":"masjid asy syakuur"},"id15849047525476447":{"guid":"5b36ff854dc243f9a6a88dccb87b045d.16","latlng":"-8.06573,111.902912","label":"Monumen UKS Perempatan"},"id1584904757612652":{"guid":"61708ee02d8d45d7ae7daada3a4325f0.16","latlng":"-8.065537,111.904401","label":"Statue Siwagir Tp Gak Sido"},"id1584904760868666":{"guid":"bad304a4cc9947ad84c49151bf5dd8c5.16","latlng":"-8.062441,111.904395","label":"Art Batik Gajah Mada"}}}}}